{
  "events": [
    {
      "id": "creation",
      "title": "La Creación",
      "description": "Dios creó los cielos y la tierra en seis días",
      "lat": 33.5138,
      "lon": 36.3065,
      "reference": "GEN.1.1-31",
      "period": "patriarcas",
      "type": "event",
      "icon": "light_mode"
    },
    {
      "id": "garden_eden",
      "title": "Jardín del Edén",
      "description": "Dios plantó un huerto en Edén al oriente",
      "lat": 31.0,
      "lon": 47.5,
      "reference": "GEN.2.8-25",
      "period": "patriarcas",
      "type": "event",
      "icon": "park"
    },
    {
      "id": "noahs_ark",
      "title": "El Arca de Noé",
      "description": "El arca reposó sobre los montes de Ararat",
      "lat": 39.7,
      "lon": 44.3,
      "reference": "GEN.8.4",
      "period": "patriarcas",
      "type": "event",
      "icon": "sailing"
    },
    {
      "id": "tower_babel",
      "title": "Torre de Babel",
      "description": "La humanidad intentó construir una torre hasta el cielo",
      "lat": 32.5362,
      "lon": 44.4209,
      "reference": "GEN.11.1-9",
      "period": "patriarcas",
      "type": "event",
      "icon": "domain"
    },
    {
      "id": "abram_call",
      "title": "Llamado de Abraham",
      "description": "Dios llamó a Abram a salir de Ur de los Caldeos",
      "lat": 30.9614,
      "lon": 46.1028,
      "reference": "GEN.12.1-3",
      "period": "patriarcas",
      "type": "event",
      "icon": "call_received"
    },
    {
      "id": "abram_canaan",
      "title": "Abraham llega a Canaán",
      "description": "Abram llegó a Siquem y Dios le prometió la tierra",
      "lat": 32.2141,
      "lon": 35.2683,
      "reference": "GEN.12.5-7",
      "period": "patriarcas",
      "type": "event",
      "icon": "place"
    },
    {
      "id": "sodom_gomorrah",
      "title": "Destrucción de Sodoma y Gomorra",
      "description": "Dios destruyó las ciudades por su maldad",
      "lat": 31.0,
      "lon": 35.45,
      "reference": "GEN.19.24-25",
      "period": "patriarcas",
      "type": "event",
      "icon": "local_fire_department"
    },
    {
      "id": "isaac_sacrifice",
      "title": "Sacrificio de Isaac",
      "description": "Abraham ofreció a Isaac en el monte Moriah",
      "lat": 31.7785,
      "lon": 35.2354,
      "reference": "GEN.22.1-14",
      "period": "patriarcas",
      "type": "event",
      "icon": "volunteer_activism"
    },
    {
      "id": "jacob_ladder",
      "title": "La Escalera de Jacob",
      "description": "Jacob soñó con una escalera al cielo en Betel",
      "lat": 31.9310,
      "lon": 35.2255,
      "reference": "GEN.28.10-19",
      "period": "patriarcas",
      "type": "event",
      "icon": "stairs"
    },
    {
      "id": "jacob_wrestling",
      "title": "Jacob lucha con el Ángel",
      "description": "Jacob luchó con Dios en Peniel y fue llamado Israel",
      "lat": 32.2069,
      "lon": 35.6547,
      "reference": "GEN.32.24-30",
      "period": "patriarcas",
      "type": "event",
      "icon": "sports_martial_arts"
    },
    {
      "id": "joseph_egypt",
      "title": "José vendido a Egipto",
      "description": "Los hermanos de José lo vendieron a mercaderes",
      "lat": 32.3599,
      "lon": 35.1700,
      "reference": "GEN.37.28",
      "period": "patriarcas",
      "type": "event",
      "icon": "sell"
    },
    {
      "id": "burning_bush",
      "title": "La Zarza Ardiente",
      "description": "Dios habló a Moisés desde la zarza en el monte Horeb",
      "lat": 28.5394,
      "lon": 33.9753,
      "reference": "EXO.3.1-6",
      "period": "exodo",
      "type": "miracle",
      "icon": "local_fire_department"
    },
    {
      "id": "ten_plagues",
      "title": "Las Diez Plagas",
      "description": "Dios envió diez plagas sobre Egipto",
      "lat": 30.0444,
      "lon": 31.2357,
      "reference": "EXO.7.14-25",
      "period": "exodo",
      "type": "miracle",
      "icon": "pest_control"
    },
    {
      "id": "passover",
      "title": "La Pascua",
      "description": "Primera Pascua: el ángel pasó sobre Israel",
      "lat": 30.0444,
      "lon": 31.2357,
      "reference": "EXO.12.1-14",
      "period": "exodo",
      "type": "event",
      "icon": "celebration"
    },
    {
      "id": "red_sea_crossing",
      "title": "Cruce del Mar Rojo",
      "description": "Moisés dividió el Mar Rojo por el poder de Dios",
      "lat": 29.9000,
      "lon": 32.5500,
      "reference": "EXO.14.21-31",
      "period": "exodo",
      "type": "miracle",
      "icon": "water"
    },
    {
      "id": "manna_heaven",
      "title": "Maná del Cielo",
      "description": "Dios proveyó maná y codornices en el desierto",
      "lat": 29.2000,
      "lon": 33.3000,
      "reference": "EXO.16.14-15",
      "period": "exodo",
      "type": "miracle",
      "icon": "breakfast_dining"
    },
    {
      "id": "ten_commandments",
      "title": "Los Diez Mandamientos",
      "description": "Dios entregó la Ley a Moisés en el monte Sinaí",
      "lat": 28.5394,
      "lon": 33.9753,
      "reference": "EXO.20.1-17",
      "period": "exodo",
      "type": "teaching",
      "icon": "gavel"
    },
    {
      "id": "golden_calf",
      "title": "El Becerro de Oro",
      "description": "Israel adoró un becerro de oro mientras Moisés estaba en el Sinaí",
      "lat": 28.5394,
      "lon": 33.9753,
      "reference": "EXO.32.1-6",
      "period": "exodo",
      "type": "event",
      "icon": "warning"
    },
    {
      "id": "water_rock",
      "title": "Agua de la Roca",
      "description": "Moisés golpeó la roca y salió agua en Cades",
      "lat": 30.6250,
      "lon": 34.4000,
      "reference": "NUM.20.7-11",
      "period": "exodo",
      "type": "miracle",
      "icon": "water_drop"
    },
    {
      "id": "bronze_serpent",
      "title": "La Serpiente de Bronce",
      "description": "Moisés levantó una serpiente de bronce para sanar al pueblo",
      "lat": 30.3283,
      "lon": 35.4407,
      "reference": "NUM.21.8-9",
      "period": "exodo",
      "type": "miracle",
      "icon": "healing"
    },
    {
      "id": "jericho_walls",
      "title": "Caída de Jericó",
      "description": "Los muros de Jericó cayeron al sonido de las trompetas",
      "lat": 31.8711,
      "lon": 35.4443,
      "reference": "JOS.6.20",
      "period": "conquista",
      "type": "battle",
      "icon": "shield"
    },
    {
      "id": "jordan_crossing",
      "title": "Cruce del Jordán",
      "description": "Israel cruzó el río Jordán en seco",
      "lat": 31.8333,
      "lon": 35.5500,
      "reference": "JOS.3.14-17",
      "period": "conquista",
      "type": "miracle",
      "icon": "water"
    },
    {
      "id": "sun_stood_still",
      "title": "El Sol se Detuvo",
      "description": "Josué pidió que el sol se detuviera en Gabaón",
      "lat": 31.8486,
      "lon": 35.1872,
      "reference": "JOS.10.12-14",
      "period": "conquista",
      "type": "miracle",
      "icon": "wb_sunny"
    },
    {
      "id": "gideon_victory",
      "title": "Victoria de Gedeón",
      "description": "Gedeón derrotó a los madianitas con 300 hombres",
      "lat": 32.5975,
      "lon": 35.3722,
      "reference": "JDG.7.19-22",
      "period": "jueces",
      "type": "battle",
      "icon": "shield"
    },
    {
      "id": "samson_temple",
      "title": "Sansón derriba el Templo",
      "description": "Sansón derribó el templo de Dagón en Gaza",
      "lat": 31.5017,
      "lon": 34.4668,
      "reference": "JDG.16.29-30",
      "period": "jueces",
      "type": "battle",
      "icon": "domain_disabled"
    },
    {
      "id": "ruth_boaz",
      "title": "Rut y Booz",
      "description": "Rut espigó en los campos de Booz en Belén",
      "lat": 31.7054,
      "lon": 35.2024,
      "reference": "RUT.2.1-7",
      "period": "jueces",
      "type": "event",
      "icon": "favorite"
    },
    {
      "id": "samuel_call",
      "title": "Llamado de Samuel",
      "description": "Dios llamó a Samuel en el tabernáculo de Silo",
      "lat": 32.0539,
      "lon": 35.2910,
      "reference": "1SA.3.1-10",
      "period": "jueces",
      "type": "event",
      "icon": "record_voice_over"
    },
    {
      "id": "david_vs_goliath",
      "title": "David y Goliat",
      "description": "David venció al gigante filisteo en el Valle de Ela",
      "lat": 31.6983,
      "lon": 34.9617,
      "reference": "1SA.17.1-58",
      "period": "reyes",
      "type": "battle",
      "icon": "shield"
    },
    {
      "id": "david_king_hebron",
      "title": "David ungido rey en Hebrón",
      "description": "David fue ungido rey sobre todo Israel en Hebrón",
      "lat": 31.5326,
      "lon": 35.0998,
      "reference": "2SA.5.1-3",
      "period": "reyes",
      "type": "event",
      "icon": "emoji_events"
    },
    {
      "id": "david_jerusalem",
      "title": "David conquista Jerusalén",
      "description": "David tomó la fortaleza de Sion como su ciudad",
      "lat": 31.7785,
      "lon": 35.2354,
      "reference": "2SA.5.6-10",
      "period": "reyes",
      "type": "battle",
      "icon": "fort"
    },
    {
      "id": "solomon_temple",
      "title": "Templo de Salomón",
      "description": "Salomón construyó y dedicó el Templo en Jerusalén",
      "lat": 31.7785,
      "lon": 35.2354,
      "reference": "1KI.8.1-11",
      "period": "reyes",
      "type": "event",
      "icon": "church"
    },
    {
      "id": "elijah_carmel",
      "title": "Elías en el Monte Carmelo",
      "description": "Elías desafió a los profetas de Baal con fuego del cielo",
      "lat": 32.7417,
      "lon": 35.0314,
      "reference": "1KI.18.36-39",
      "period": "profetas",
      "type": "miracle",
      "icon": "local_fire_department"
    },
    {
      "id": "elijah_rapture",
      "title": "Elías llevado al Cielo",
      "description": "Elías fue arrebatado en un carro de fuego",
      "lat": 31.8333,
      "lon": 35.5500,
      "reference": "2KI.2.11",
      "period": "profetas",
      "type": "miracle",
      "icon": "flight_takeoff"
    },
    {
      "id": "naaman_healing",
      "title": "Sanidad de Naamán",
      "description": "Naamán fue sanado de lepra al bañarse en el Jordán",
      "lat": 32.7000,
      "lon": 35.5700,
      "reference": "2KI.5.14",
      "period": "profetas",
      "type": "miracle",
      "icon": "healing"
    },
    {
      "id": "fall_samaria",
      "title": "Caída de Samaria",
      "description": "Asiria conquistó el reino del norte de Israel",
      "lat": 32.2749,
      "lon": 35.1933,
      "reference": "2KI.17.6",
      "period": "profetas",
      "type": "battle",
      "icon": "dangerous"
    },
    {
      "id": "fall_jerusalem_586",
      "title": "Caída de Jerusalén (586 a.C.)",
      "description": "Nabucodonosor destruyó Jerusalén y el Templo",
      "lat": 31.7785,
      "lon": 35.2354,
      "reference": "2KI.25.8-10",
      "period": "profetas",
      "type": "battle",
      "icon": "dangerous"
    },
    {
      "id": "daniel_lions_den",
      "title": "Daniel en el Foso de los Leones",
      "description": "Dios cerró la boca de los leones para proteger a Daniel",
      "lat": 32.5362,
      "lon": 44.4209,
      "reference": "DAN.6.16-23",
      "period": "profetas",
      "type": "miracle",
      "icon": "pets"
    },
    {
      "id": "fiery_furnace",
      "title": "El Horno de Fuego",
      "description": "Sadrac, Mesac y Abed-nego sobrevivieron al horno",
      "lat": 32.5362,
      "lon": 44.4209,
      "reference": "DAN.3.19-27",
      "period": "profetas",
      "type": "miracle",
      "icon": "local_fire_department"
    },
    {
      "id": "jonah_nineveh",
      "title": "Jonás en Nínive",
      "description": "Jonás predicó en Nínive y la ciudad se arrepintió",
      "lat": 36.3600,
      "lon": 43.1500,
      "reference": "JON.3.1-10",
      "period": "profetas",
      "type": "event",
      "icon": "campaign"
    },
    {
      "id": "return_exile",
      "title": "Retorno del Exilio",
      "description": "Los judíos regresaron de Babilonia bajo Zorobabel",
      "lat": 31.7785,
      "lon": 35.2354,
      "reference": "EZR.1.1-4",
      "period": "profetas",
      "type": "event",
      "icon": "home"
    },
    {
      "id": "jesus_birth",
      "title": "Nacimiento de Jesús",
      "description": "Jesús nació en un pesebre en Belén de Judea",
      "lat": 31.7054,
      "lon": 35.2024,
      "reference": "LUK.2.4-7",
      "period": "ministerio_jesus",
      "type": "event",
      "icon": "child_care"
    },
    {
      "id": "wise_men",
      "title": "Visita de los Magos",
      "description": "Los magos del oriente vinieron a adorar al niño Jesús",
      "lat": 31.7054,
      "lon": 35.2024,
      "reference": "MAT.2.1-12",
      "period": "ministerio_jesus",
      "type": "event",
      "icon": "stars"
    },
    {
      "id": "baptism_jesus",
      "title": "Bautismo de Jesús",
      "description": "Juan bautizó a Jesús en el río Jordán",
      "lat": 31.8333,
      "lon": 35.5500,
      "reference": "MAT.3.13-17",
      "period": "ministerio_jesus",
      "type": "event",
      "icon": "water"
    },
    {
      "id": "temptation_desert",
      "title": "Tentación en el Desierto",
      "description": "Jesús fue tentado por el diablo durante 40 días",
      "lat": 31.8500,
      "lon": 35.3800,
      "reference": "MAT.4.1-11",
      "period": "ministerio_jesus",
      "type": "event",
      "icon": "landscape"
    },
    {
      "id": "water_to_wine",
      "title": "Agua en Vino",
      "description": "Primer milagro de Jesús en las bodas de Caná",
      "lat": 32.8631,
      "lon": 35.3419,
      "reference": "JHN.2.1-11",
      "period": "ministerio_jesus",
      "type": "miracle",
      "icon": "wine_bar"
    },
    {
      "id": "sermon_mount",
      "title": "Sermón del Monte",
      "description": "Jesús enseñó las Bienaventuranzas",
      "lat": 32.8994,
      "lon": 35.5586,
      "reference": "MAT.5.1-12",
      "period": "ministerio_jesus",
      "type": "teaching",
      "icon": "school"
    },
    {
      "id": "calming_storm",
      "title": "Jesús calma la Tempestad",
      "description": "Jesús calmó la tormenta en el mar de Galilea",
      "lat": 32.8400,
      "lon": 35.5800,
      "reference": "MAR.4.35-41",
      "period": "ministerio_jesus",
      "type": "miracle",
      "icon": "thunderstorm"
    },
    {
      "id": "feeding_5000",
      "title": "Multiplicación de los Panes",
      "description": "Jesús alimentó a 5,000 personas con 5 panes y 2 peces",
      "lat": 32.9031,
      "lon": 35.6300,
      "reference": "JHN.6.1-14",
      "period": "ministerio_jesus",
      "type": "miracle",
      "icon": "restaurant"
    },
    {
      "id": "walking_water",
      "title": "Jesús camina sobre el Agua",
      "description": "Jesús caminó sobre el mar de Galilea hacia los discípulos",
      "lat": 32.8500,
      "lon": 35.5600,
      "reference": "MAT.14.22-33",
      "period": "ministerio_jesus",
      "type": "miracle",
      "icon": "water"
    },
    {
      "id": "transfiguration",
      "title": "Transfiguración",
      "description": "Jesús se transfiguró ante Pedro, Jacobo y Juan",
      "lat": 33.2167,
      "lon": 35.7667,
      "reference": "MAT.17.1-9",
      "period": "ministerio_jesus",
      "type": "miracle",
      "icon": "light_mode"
    },
    {
      "id": "lazarus_raised",
      "title": "Resurrección de Lázaro",
      "description": "Jesús resucitó a Lázaro después de 4 días muerto",
      "lat": 31.7700,
      "lon": 35.2600,
      "reference": "JHN.11.38-44",
      "period": "ministerio_jesus",
      "type": "miracle",
      "icon": "light_mode"
    },
    {
      "id": "triumphal_entry",
      "title": "Entrada Triunfal",
      "description": "Jesús entró a Jerusalén montado en un burro",
      "lat": 31.7785,
      "lon": 35.2354,
      "reference": "MAT.21.1-11",
      "period": "pasion",
      "type": "event",
      "icon": "celebration"
    },
    {
      "id": "temple_cleansing",
      "title": "Purificación del Templo",
      "description": "Jesús expulsó a los mercaderes del Templo",
      "lat": 31.7785,
      "lon": 35.2354,
      "reference": "JHN.2.13-17",
      "period": "ministerio_jesus",
      "type": "event",
      "icon": "gavel"
    },
    {
      "id": "last_supper",
      "title": "La Última Cena",
      "description": "Jesús instituyó la Santa Cena con sus discípulos",
      "lat": 31.7617,
      "lon": 35.2294,
      "reference": "LUK.22.14-20",
      "period": "pasion",
      "type": "event",
      "icon": "celebration"
    },
    {
      "id": "gethsemane",
      "title": "Getsemaní",
      "description": "Jesús oró intensamente antes de su arresto",
      "lat": 31.7792,
      "lon": 35.2397,
      "reference": "MAT.26.36-46",
      "period": "pasion",
      "type": "event",
      "icon": "nightlight"
    },
    {
      "id": "crucifixion",
      "title": "La Crucifixión",
      "description": "Jesús fue crucificado en el Gólgota por nuestros pecados",
      "lat": 31.7785,
      "lon": 35.2298,
      "reference": "JHN.19.17-30",
      "period": "pasion",
      "type": "crucifixion",
      "icon": "add"
    },
    {
      "id": "resurrection",
      "title": "La Resurrección",
      "description": "Jesús resucitó al tercer día, venciendo la muerte",
      "lat": 31.7785,
      "lon": 35.2298,
      "reference": "JHN.20.1-18",
      "period": "pasion",
      "type": "miracle",
      "icon": "light_mode"
    },
    {
      "id": "ascension",
      "title": "La Ascensión",
      "description": "Jesús ascendió al cielo desde el monte de los Olivos",
      "lat": 31.7790,
      "lon": 35.2445,
      "reference": "ACT.1.9-11",
      "period": "hechos",
      "type": "event",
      "icon": "flight_takeoff"
    },
    {
      "id": "pentecost",
      "title": "Pentecostés",
      "description": "El Espíritu Santo descendió sobre los discípulos",
      "lat": 31.7785,
      "lon": 35.2354,
      "reference": "ACT.2.1-4",
      "period": "hechos",
      "type": "miracle",
      "icon": "local_fire_department"
    },
    {
      "id": "stephen_martyrdom",
      "title": "Martirio de Esteban",
      "description": "Esteban fue el primer mártir cristiano, apedreado en Jerusalén",
      "lat": 31.7785,
      "lon": 35.2354,
      "reference": "ACT.7.54-60",
      "period": "hechos",
      "type": "event",
      "icon": "person"
    },
    {
      "id": "saul_conversion",
      "title": "Conversión de Saulo",
      "description": "Saulo encontró a Jesús resucitado camino a Damasco",
      "lat": 33.5138,
      "lon": 36.2765,
      "reference": "ACT.9.1-9",
      "period": "pablo",
      "type": "miracle",
      "icon": "light_mode"
    },
    {
      "id": "peter_cornelius",
      "title": "Pedro y Cornelio",
      "description": "Pedro predicó a los gentiles por primera vez en Cesarea",
      "lat": 32.4986,
      "lon": 34.8853,
      "reference": "ACT.10.34-48",
      "period": "hechos",
      "type": "teaching",
      "icon": "groups"
    },
    {
      "id": "paul_antioch",
      "title": "Pablo en Antioquía",
      "description": "La iglesia de Antioquía envió a Pablo como misionero",
      "lat": 36.2022,
      "lon": 36.1606,
      "reference": "ACT.13.1-3",
      "period": "pablo",
      "type": "event",
      "icon": "send"
    },
    {
      "id": "paul_athens",
      "title": "Pablo en Atenas",
      "description": "Pablo predicó en el Areópago: 'Al Dios no conocido'",
      "lat": 37.9722,
      "lon": 23.7237,
      "reference": "ACT.17.22-31",
      "period": "pablo",
      "type": "teaching",
      "icon": "school"
    },
    {
      "id": "paul_corinth",
      "title": "Pablo en Corinto",
      "description": "Pablo fundó la iglesia de Corinto durante 18 meses",
      "lat": 37.9062,
      "lon": 22.8799,
      "reference": "ACT.18.1-11",
      "period": "pablo",
      "type": "teaching",
      "icon": "church"
    },
    {
      "id": "paul_ephesus",
      "title": "Pablo en Éfeso",
      "description": "Pablo enseñó en Éfeso durante 2 años; milagros extraordinarios",
      "lat": 37.9397,
      "lon": 27.3419,
      "reference": "ACT.19.8-12",
      "period": "pablo",
      "type": "teaching",
      "icon": "school"
    },
    {
      "id": "paul_shipwreck",
      "title": "Naufragio de Pablo",
      "description": "Pablo naufragó en Malta camino a Roma",
      "lat": 35.9175,
      "lon": 14.4096,
      "reference": "ACT.27.39-44",
      "period": "pablo",
      "type": "event",
      "icon": "sailing"
    },
    {
      "id": "paul_rome",
      "title": "Pablo llega a Roma",
      "description": "Pablo predicó el evangelio bajo arresto domiciliario en Roma",
      "lat": 41.8902,
      "lon": 12.4922,
      "reference": "ACT.28.30-31",
      "period": "pablo",
      "type": "teaching",
      "icon": "church"
    }
  ]
}
